[
	{
		"Newspaper": "Jeffersonian Gazette",
		"Date": "5/31/1905",
		"LocationTitle": "South Park",
		"KeywordLocation": "",
		"Affiliations": "John Brown and Frank Grove",
		"Language": "hoboes; disporting; drunk",
		"Longitude": -95.23539327,
		"Latitude": 38.96209827
	},
	{
		"Newspaper": "Jeffersonian Gazette",
		"Date": "7/19/1905",
		"LocationTitle": "railroad",
		"KeywordLocation": "",
		"Affiliations": "Corn and Cobb",
		"Language": "railroad tresspass",
		"Longitude": -95.22990339,
		"Latitude": 38.97108002
	},
	{
		"Newspaper": "Daily Gazette",
		"Date": "2/27/1905",
		"LocationTitle": "U.P. depot",
		"KeywordLocation": "lodging house out of the depot",
		"Affiliations": "three hoboes",
		"Language": "vagged",
		"Longitude": -95.230158,
		"Latitude": 38.97109158
	},
	{
		"Newspaper": "Jeffersonian Gazette",
		"Date": "5/10/1905",
		"LocationTitle": "U.P. rightaway",
		"KeywordLocation": "",
		"Affiliations": "four hoboes",
		"Language": "built a fire; cold; railroad ties",
		"Longitude": -95.23336004,
		"Latitude": 38.97840887
	},
	{
		"Newspaper": "Jeffersonian Gazette",
		"Date": "4/19/1905",
		"LocationTitle": "City Hall",
		"KeywordLocation": "",
		"Affiliations": "four hoboes; Janitor Brown",
		"Language": "refused to work; threatened; war council",
		"Longitude": -95.2370681,
		"Latitude": 38.96944434
	},
	{
		"Newspaper": "Daily Gazette",
		"Date": "7/14/1906",
		"LocationTitle": "East Bottoms",
		"KeywordLocation": "joint",
		"Affiliations": "Aunt Jane Williams",
		"Language": "Queen of the Bottoms",
		"Longitude": -95.22916552,
		"Latitude": 38.96869125
	},
	{
		"Newspaper": "Daily Gazette",
		"Date": "7/14/1906",
		"LocationTitle": "East Bottoms",
		"KeywordLocation": "joint",
		"Affiliations": "John \"Garfield\" Allen",
		"Language": "",
		"Longitude": -95.22911595,
		"Latitude": 38.96925202
	},
	{
		"Newspaper": "Lawrence Daily Journal",
		"Date": "8/27/1906",
		"LocationTitle": "East Bottoms",
		"KeywordLocation": "joint",
		"Affiliations": "Nancy Hawkins",
		"Language": "",
		"Longitude": -95.22898008,
		"Latitude": 38.96899411
	},
	{
		"Newspaper": "Lawrence Daily Journal",
		"Date": "8/27/1906",
		"LocationTitle": "East Bottoms",
		"KeywordLocation": "",
		"Affiliations": "Aunt\" Jane Dixon",
		"Language": "",
		"Longitude": -95.22910508,
		"Latitude": 38.96999252
	},
	{
		"Newspaper": "Lawrence Daily Journal",
		"Date": "8/27/1906",
		"LocationTitle": "East Bottoms",
		"KeywordLocation": "joint",
		"Affiliations": "Ozzie (Rosa) (Osa) Frye",
		"Language": "",
		"Longitude": -95.22896773,
		"Latitude": 38.96892277
	},
	{
		"Newspaper": "Lawrence Daily Journal",
		"Date": "8/27/1906",
		"LocationTitle": "East Bottoms",
		"KeywordLocation": "joint",
		"Affiliations": "Nero \"Bull\" Sparks",
		"Language": "",
		"Longitude": -95.22898361,
		"Latitude": 38.96895569
	},
	{
		"Newspaper": "Lawrence Daily Journal",
		"Date": "8/27/1906",
		"LocationTitle": "East Bottoms",
		"KeywordLocation": "joint",
		"Affiliations": "Minnie Hawkins",
		"Language": "",
		"Longitude": -95.23020484,
		"Latitude": 38.96921887
	},
	{
		"Newspaper": "Daily Gazette",
		"Date": "12/29/1905",
		"LocationTitle": "East Bottoms",
		"KeywordLocation": "",
		"Affiliations": "John \"Bull\" Jenkins",
		"Language": "",
		"Longitude": -95.22918357,
		"Latitude": 38.96813133
	},
	{
		"Newspaper": "Lawrence Daily Journal",
		"Date": "1/7/1907",
		"LocationTitle": "East Bottoms",
		"KeywordLocation": "",
		"Affiliations": "Dolph Burns; John Jenkins",
		"Language": "shooting",
		"Longitude": -95.22902703,
		"Latitude": 38.96916825
	},
	{
		"Newspaper": "Lawrence Daily Journal",
		"Date": "1/7/1907",
		"LocationTitle": "East Bottoms",
		"KeywordLocation": "shack",
		"Affiliations": "Nick Johnson; Dolph Burns; John Jennkins",
		"Language": "home; shack; beer party",
		"Longitude": -95.23020653,
		"Latitude": 38.97034949
	},
	{
		"Newspaper": "Daily Gazette",
		"Date": "6/24/1907",
		"LocationTitle": "East Bottoms",
		"KeywordLocation": "house",
		"Affiliations": "Aunt Jane Williams; Peter Jenkins (old)",
		"Language": "empty chairs and decrepit tables; joint; dismantled; basement",
		"Longitude": -95.22920416,
		"Latitude": 38.96811141
	},
	{
		"Newspaper": "Daily Gazette",
		"Date": "11/11/1910",
		"LocationTitle": "Watkins Bank",
		"KeywordLocation": "",
		"Affiliations": "four hoboes",
		"Language": "work or die; hitting the pike; north",
		"Longitude": -95.23539209,
		"Latitude": 38.96217013
	},
	{
		"Newspaper": "Jeffersonian Gazette",
		"Date": "5/19/1915",
		"LocationTitle": "Brooks Sparks' Barn",
		"KeywordLocation": "",
		"Affiliations": "fourteen hoboes",
		"Language": "annual migration",
		"Longitude": -95.23561394,
		"Latitude": 38.9572269
	},
	{
		"Newspaper": "Daily Kansan",
		"Date": "4/20/1873",
		"LocationTitle": "Smoker's Row",
		"KeywordLocation": "tenements; putting up",
		"Affiliations": "Cinda; Reese Cravens",
		"Language": "",
		"Longitude": -95.23221942,
		"Latitude": 38.96380048
	},
	{
		"Newspaper": "Daily Kansan",
		"Date": "4/20/1873",
		"LocationTitle": "Greasy Hollow",
		"KeywordLocation": "",
		"Affiliations": "Kitty Harris; Mrs. McCruder",
		"Language": "",
		"Longitude": -95.23007489,
		"Latitude": 38.97070456
	},
	{
		"Newspaper": "Lawrence Daily Gazette",
		"Date": "7/28/1894",
		"LocationTitle": "East Bottoms",
		"KeywordLocation": "house",
		"Affiliations": "John Johnson; Swede stone cutter; Cyclony",
		"Language": "drunken fight",
		"Longitude": -95.23256413,
		"Latitude": 38.97036526
	},
	{
		"Newspaper": "Lawrence Daily Journal",
		"Date": "7/28/1894",
		"LocationTitle": "East Bottoms",
		"KeywordLocation": "roofs of coal houses in santa fe yards; near cider mill",
		"Affiliations": "Chuck Carroll; John Brooks",
		"Language": "rounders; gang; loaf; shoot craps; gamble; drink hard cider; joints; nuisance",
		"Longitude": -95.22848227,
		"Latitude": 38.96985921
	},
	{
		"Newspaper": "Lawrence Daily Gazette",
		"Date": "7/17/1894",
		"LocationTitle": "East Bottoms",
		"KeywordLocation": "willows",
		"Affiliations": "",
		"Language": "Kaig party; amusement; kings of east bottoms",
		"Longitude": -95.22883178,
		"Latitude": 38.97096585
	},
	{
		"Newspaper": "Lawrence Daily Gazette",
		"Date": "6/18/1894",
		"LocationTitle": "East Bottoms",
		"KeywordLocation": "santa fe boxcar",
		"Affiliations": "coxeyites",
		"Language": "wild revelry",
		"Longitude": -95.22827963,
		"Latitude": 38.97061892
	},
	{
		"Newspaper": "Lawrence Daily Journal",
		"Date": "3/28/1894",
		"LocationTitle": "little island",
		"KeywordLocation": "one mile below railroad bridge",
		"Affiliations": "desperados ",
		"Language": "desperados",
		"Longitude": -95.22818633,
		"Latitude": 38.97202329
	},
	{
		"Newspaper": "Lawrence Daily Journal",
		"Date": "3/28/1894",
		"LocationTitle": "East Bottoms",
		"KeywordLocation": "timber",
		"Affiliations": "",
		"Language": "fugitives; camp",
		"Longitude": -95.22775869,
		"Latitude": 38.97011281
	},
	{
		"Newspaper": "Lawrence Daily World",
		"Date": "2/14/1894",
		"LocationTitle": "corner where bums hang",
		"KeywordLocation": "corner",
		"Affiliations": "",
		"Language": "obnoxious; worthless; idling; pitiable; professional bum; negroes; purified;",
		"Longitude": -95.23585506,
		"Latitude": 38.96935011
	},
	{
		"Newspaper": "Eudora Weekly News",
		"Date": "2/8/1894",
		"LocationTitle": "East Bottoms",
		"KeywordLocation": "infamous joint",
		"Affiliations": "Charles Drake; Harry Reeves; Mrs. Butler; Louisa Drake; \"Cock-eyed\" Spencer",
		"Language": "infamous; iniquity",
		"Longitude": -95.23288746,
		"Latitude": 38.96916175
	},
	{
		"Newspaper": "Lawrence Daily Gazette",
		"Date": "1/27/1894",
		"LocationTitle": "East Bottoms",
		"KeywordLocation": "6 ft high bluff",
		"Affiliations": "",
		"Language": "wild scene; murder",
		"Longitude": -95.22863809,
		"Latitude": 38.97075063
	},
	{
		"Newspaper": "Lawrence Daily Gazette",
		"Date": "1/27/1894",
		"LocationTitle": "Greasy Hollow",
		"KeywordLocation": "willow trees",
		"Affiliations": "",
		"Language": "",
		"Longitude": -95.22895083,
		"Latitude": 38.97102263
	},
	{
		"Newspaper": "Lawrence Daily Journal",
		"Date": "11/18/1893",
		"LocationTitle": "East Bottoms",
		"KeywordLocation": "Santa fe coal chutes",
		"Affiliations": "",
		"Language": "",
		"Longitude": -95.22901667,
		"Latitude": 38.9706015
	},
	{
		"Newspaper": "Lawrence Daily Journal",
		"Date": "11/9/1893",
		"LocationTitle": "East Bottoms",
		"KeywordLocation": "santa fe freight house",
		"Affiliations": "",
		"Language": "",
		"Longitude": -95.23022448,
		"Latitude": 38.97105369
	},
	{
		"Newspaper": "weekly record",
		"Date": "10/7/1892",
		"LocationTitle": "East Bottoms",
		"KeywordLocation": "Miller's Grove",
		"Affiliations": "",
		"Language": "",
		"Longitude": -95.22180565,
		"Latitude": 38.96214796
	},
	{
		"Newspaper": "Evening Tribune",
		"Date": "2/13/1890",
		"LocationTitle": "Poverty Flat/Buzzard's Glen",
		"KeywordLocation": "Narrow Neck of Land; west of bridge",
		"Affiliations": "",
		"Language": "headquarters for fugitives; women; refuge; sweeping out the dust",
		"Longitude": -95.23612506,
		"Latitude": 38.97704593
	},
	{
		"Newspaper": "Lawrence Daily Journal",
		"Date": "11/10/1890",
		"LocationTitle": "Poverty Flat",
		"KeywordLocation": "block",
		"Affiliations": "",
		"Language": "",
		"Longitude": -95.23598717,
		"Latitude": 38.97723734
	},
	{
		"Newspaper": "Lawrence Daily Journal",
		"Date": "3/24/1889",
		"LocationTitle": "Poverty Flat",
		"KeywordLocation": "old box building",
		"Affiliations": "John Rogers",
		"Language": "",
		"Longitude": -95.23564733,
		"Latitude": 38.97707316
	},
	{
		"Newspaper": "Lawrence Daily Journal",
		"Date": "9/18/1889",
		"LocationTitle": "Poverty Flat",
		"KeywordLocation": "5th Ward",
		"Affiliations": "3 sisters",
		"Language": "county jail; fugitives",
		"Longitude": -95.23595302,
		"Latitude": 38.97697906
	},
	{
		"Newspaper": "Lawrence Daily Journal",
		"Date": "10/6/1888",
		"LocationTitle": "Poverty Flat",
		"KeywordLocation": "North Side; house; old building",
		"Affiliations": "",
		"Language": "rough; gun; rock; colored women",
		"Longitude": -95.23615664,
		"Latitude": 38.97737158
	},
	{
		"Newspaper": "Lawrence Daily Journal",
		"Date": "12/5/1888",
		"LocationTitle": "Poverty Flat",
		"KeywordLocation": "",
		"Affiliations": "",
		"Language": "gun shots; mortal combat",
		"Longitude": -95.23654728,
		"Latitude": 38.97739801
	},
	{
		"Newspaper": "Lawrene Daily World",
		"Date": "8/25/1892",
		"LocationTitle": "Bad Lands",
		"KeywordLocation": "decamped",
		"Affiliations": "smokey pilgrims; bad lands",
		"Language": "toughest toughs; bad lands",
		"Longitude": -95.24123973,
		"Latitude": 38.962144
	},
	{
		"Newspaper": "Lawrence Daily Journal",
		"Date": "8/12/1892",
		"LocationTitle": "Smokey Pilgrims",
		"KeywordLocation": "shanty",
		"Affiliations": "Taylor; tough part of east Lawrence",
		"Language": "drunk; shanty; swore; hit; beaten",
		"Longitude": -95.22925148,
		"Latitude": 38.9703979
	},
	{
		"Newspaper": "Lawrence Daily World",
		"Date": "8/12/1892",
		"LocationTitle": "Smokey Pilgrims",
		"KeywordLocation": "huts",
		"Affiliations": "Jack Taylor",
		"Language": "drunk; row; hard cider; badly mutilated",
		"Longitude": -95.22917446,
		"Latitude": 38.97031038
	},
	{
		"Newspaper": "Lawrence Daily Gazette",
		"Date": "6/22/1892",
		"LocationTitle": "Smokey Pilgrims",
		"KeywordLocation": "haunts",
		"Affiliations": "",
		"Language": "",
		"Longitude": -95.22936404,
		"Latitude": 38.97068346
	},
	{
		"Newspaper": "Lawrence Weekly World; Lawrence Journal",
		"Date": "6/11/1898",
		"LocationTitle": "Hoboes",
		"KeywordLocation": "Porter's Restaurant",
		"Affiliations": "Porter's Restaurant; J.F. Smith; E. Turner",
		"Language": "hoboes; drunk; quarellsome",
		"Longitude": -95.23599418,
		"Latitude": 38.97264309
	},
	{
		"Newspaper": "Lawrence Daily Journal",
		"Date": "6/25/1900",
		"LocationTitle": "Bad Lands",
		"KeywordLocation": "",
		"Affiliations": "Mollie Jenkins; Will Hayden",
		"Language": "hell hole",
		"Longitude": -95.22874996,
		"Latitude": 38.96865536
	},
	{
		"Newspaper": "Lawrence Daily Gazette",
		"Date": "9/8/1891",
		"LocationTitle": "Smokey Pilgrims",
		"KeywordLocation": "\"smokey pilgrim neighborhood\" ",
		"Affiliations": "",
		"Language": "",
		"Longitude": -95.22915076,
		"Latitude": 38.97072492
	},
	{
		"Newspaper": "University Daily Kansan",
		"Date": "3/8/1910",
		"LocationTitle": "East Bottoms",
		"KeywordLocation": "Settlement House",
		"Affiliations": "Miss Cornelia Hardcastle; Miss Lucile Barrett; Miss Chloe Cory; Miss Veda Walker",
		"Language": "little urchins of the district; mythological and Bible stories and classical and fairy tales; taught stories of moral uplift almost unconciously",
		"Longitude": -95.23102495,
		"Latitude": 38.96478976
	},
	{
		"Newspaper": "Lawrence Daily World",
		"Date": "12/17/1910",
		"LocationTitle": "East Bottoms",
		"KeywordLocation": "nuisance; resort; one room shack",
		"Affiliations": "Roy \"Ringtail\" McGee (Magee); Cliff Thornton; M. Johnson; P.Schrad; A. King; Chas. Johnson; Sam Johnson",
		"Language": "resort; negroes; squatted; one room shack; empty bottles; jugs; and beer kegs; rushing business",
		"Longitude": -95.22798854,
		"Latitude": 38.96853341
	},
	{
		"Newspaper": "Daily Gazette",
		"Date": "3/18/1918",
		"LocationTitle": "River below town",
		"KeywordLocation": "",
		"Affiliations": "hoboes; thirteen year old boy Ermal Tunnell",
		"Language": "runaway",
		"Longitude": -95.22881575,
		"Latitude": 38.97132702
	},
	{
		"Newspaper": "Lawrence Democrat",
		"Date": "11/23/1922",
		"LocationTitle": "Grocery",
		"KeywordLocation": "",
		"Affiliations": "Harry Kane",
		"Language": "guilty; violation prohibitory law; cherry extracts; rounders and bums of east side",
		"Longitude": -95.2358712,
		"Latitude": 38.96755919
	},
	{
		"Newspaper": "Lawrence Daily Journal-World",
		"Date": "10/19/1918",
		"LocationTitle": "East Bottoms",
		"KeywordLocation": "",
		"Affiliations": "Elmer Daniels; Henry Scott",
		"Language": "Black; Boys; shot",
		"Longitude": -95.22888828,
		"Latitude": 38.9599126
	},
	{
		"Newspaper": "Daily Gazette",
		"Date": "10/7/1918",
		"LocationTitle": "East Bottoms",
		"KeywordLocation": "white sector of the East Bottoms",
		"Affiliations": "Bob Hunter; Zimmerman",
		"Language": "stabbed",
		"Longitude": -95.22900014,
		"Latitude": 38.96607805
	},
	{
		"Newspaper": "Lawrence Daily Journal-World",
		"Date": "10/8/1918",
		"LocationTitle": "East Bottoms",
		"KeywordLocation": "Mexican sector of the Lawrence East Bottoms district",
		"Affiliations": "Maximino Pinentel; Jose Roderiguez",
		"Language": "shot",
		"Longitude": -95.22878676,
		"Latitude": 38.96922967
	}
]
